[{
    "name": "Carrie Blankenship",
    "age": 51,
    "street": "5346 Joel Shoals",
    "city": "New Sabrina",
    "state": "Arizona",
    "zip": 51384,
    "lng": -153.810714,
    "lat": 16.137981

},{
    "name": "Kimberly Pham",
    "age": 54,
    "street": "281 Anderson Path",
    "city": "West Jasontown",
    "state": "New Hampshire",
    "zip": 36577,
    "lng": 143.79527,
    "lat": -16.3675635

},{
    "name": "Brandi Waters",
    "age": 74,
    "street": "127 Rachel Centers Suite 926",
    "city": "Emilyburgh",
    "state": "North Dakota",
    "zip": 78021,
    "lng": -57.605925,
    "lat": -57.958581

},{
    "name": "Tina Gates",
    "age": 73,
    "street": "629 Anthony Highway Apt. 924",
    "city": "West Brandon",
    "state": "Hawaii",
    "zip": 64113,
    "lng": 139.40622,
    "lat": 28.840082

},{
    "name": "Elizabeth Brown",
    "age": 56,
    "street": "0072 Barbara Views Apt. 481",
    "city": "East Michaelburgh",
    "state": "Michigan",
    "zip": 86786,
    "lng": -71.899984,
    "lat": -3.9160415

},{
    "name": "Richard Ward",
    "age": 55,
    "street": "64910 Mueller Rapid",
    "city": "West Ericport",
    "state": "Louisiana",
    "zip": 57827,
    "lng": -44.720845,
    "lat": -16.9342465

},{
    "name": "Carrie Rodriguez",
    "age": 46,
    "street": "03599 Simon Centers",
    "city": "Port Madison",
    "state": "West Virginia",
    "zip": 75314,
    "lng": -32.771038,
    "lat": -71.5826685

},{
    "name": "Jody Bentley",
    "age": 59,
    "street": "01405 Gary Walks Apt. 923",
    "city": "West Joshuafurt",
    "state": "Mississippi",
    "zip": 71480,
    "lng": -112.970578,
    "lat": -26.281891

},{
    "name": "Daniel Carter",
    "age": 69,
    "street": "88166 Ramirez Skyway",
    "city": "Matthewstown",
    "state": "Massachusetts",
    "zip": 51337,
    "lng": -6.243872,
    "lat": 86.12978

},{
    "name": "Wayne Wheeler",
    "age": 77,
    "street": "5091 Brandon Meadow Apt. 491",
    "city": "North Robertstad",
    "state": "New York",
    "zip": 94329,
    "lng": -11.845199,
    "lat": -54.361112

},{
    "name": "Hannah Barnes",
    "age": 77,
    "street": "2005 Carlos Points",
    "city": "Lake Darrell",
    "state": "Nebraska",
    "zip": 16008,
    "lng": -100.88057,
    "lat": -46.2282775

},{
    "name": "Michael Friedman",
    "age": 68,
    "street": "05119 Douglas Port",
    "city": "Port Jenniferland",
    "state": "Idaho",
    "zip": 97600,
    "lng": 176.44331,
    "lat": 2.552278

},{
    "name": "Whitney Hernandez",
    "age": 45,
    "street": "0624 Barker Motorway",
    "city": "New Adamberg",
    "state": "Rhode Island",
    "zip": 92662,
    "lng": -46.404661,
    "lat": 68.859924

},{
    "name": "Patricia Fleming",
    "age": 44,
    "street": "025 Hall Trail Suite 480",
    "city": "Berryland",
    "state": "Virginia",
    "zip": 24203,
    "lng": -59.970292,
    "lat": 4.5517063

},{
    "name": "Elizabeth White",
    "age": 64,
    "street": "922 Chapman Rue",
    "city": "West Dianaton",
    "state": "New Jersey",
    "zip": 31221,
    "lng": -10.669353,
    "lat": 23.247667

},{
    "name": "Lisa Case",
    "age": 53,
    "street": "825 Terri Rapids Suite 475",
    "city": "East Kimberlyfort",
    "state": "Kentucky",
    "zip": 11020,
    "lng": -77.081602,
    "lat": -22.976649

},{
    "name": "Amber Hanson",
    "age": 62,
    "street": "1633 Clayton Divide",
    "city": "New Jamesborough",
    "state": "Delaware",
    "zip": 4102,
    "lng": 147.62975,
    "lat": 14.598953

},{
    "name": "Cindy Allen",
    "age": 69,
    "street": "021 Karen Common Apt. 232",
    "city": "South Peter",
    "state": "Wisconsin",
    "zip": 21774,
    "lng": 59.903305,
    "lat": -3.989812

}]